{
  "#1": {
    "id": 1,
    "name": "Mount Yarigatake: Kamikochi Course",
    "longitude": 137.6375821,
    "latitude": 36.2482936
  },
  "#2": {
    "id": 2,
    "name": "Mount Akadake - Mount Yokodake - Mount Iodake",
    "longitude": 138.419722,
    "latitude": 36.119444
  },
  "#3": {
    "id": 3,
    "name": "Mt. Fuji: Yoshida Trail",
    "longitude": 138.6565076129471,
    "latitude": 35.4040975
  },
  "#4": {
    "id": 4,
    "name": "Nikko World Heritage Shrines and Temples",
    "longitude": 139.6989028,
    "latitude": 36.7196755
  },
  "#5": {
    "id": 5,
    "name": "Mt. Fuji: Subashiri Trail",
    "longitude": 138.6565076129471,
    "latitude": 35.4040975
  },
  "#6": {
    "id": 6,
    "name": "Fushimi Inari Walking Tour",
    "longitude": 135.7556075,
    "latitude": 35.021041
  },
  "#7": {
    "id": 7,
    "name": "Mount Yufu Loop",
    "longitude": 131.1019511366612,
    "latitude": 33.025360649999996
  },
  "#8": {
    "id": 8,
    "name": "Hyakuhiro Falls - Mount Kawanori - Hatonosu Station",
    "longitude": 138.716667,
    "latitude": 35.9
  },
  "#9": {
    "id": 9,
    "name": "Mount Chogatake - Jonengoya Loop",
    "longitude": 137.6375821,
    "latitude": 36.2482936
  },
  "#10": {
    "id": 10,
    "name": "Hoo Sanzan Mountains - Aoki Kosen Loop",
    "longitude": 138.47554268222697,
    "latitude": 35.5719853
  },
  "#11": {
    "id": 11,
    "name": "Mount Yufu: Main Trailhead Trail (West Peak)",
    "longitude": 131.1019511366612,
    "latitude": 33.025360649999996
  },
  "#12": {
    "id": 12,
    "name": "Mount Hirugatake - Mount Tanzawa - Mount Tonodake",
    "longitude": 139.160147,
    "latitude": 35.442396
  },
  "#13": {
    "id": 13,
    "name": "Jyakuchikyo Five Falls Loop",
    "longitude": 132.2191163,
    "latitude": 34.1664995
  },
  "#14": {
    "id": 14,
    "name": "Mt. Rokko Trail: Arima - Koza Falls",
    "longitude": 135.0680929,
    "latitude": 34.2853929
  },
  "#15": {
    "id": 15,
    "name": "Mount Oyama Loop",
    "longitude": 139.160147,
    "latitude": 35.442396
  },
  "#16": {
    "id": 16,
    "name": "Yamanobe No Michi",
    "longitude": 135.8434724,
    "latitude": 34.5186316
  },
  "#17": {
    "id": 17,
    "name": "Mount Tonosu - Mount Tenran - Hanno Station",
    "longitude": 139.3276436,
    "latitude": 35.8556902
  },
  "#18": {
    "id": 18,
    "name": "Mount Tsubakuro",
    "longitude": 137.9054972,
    "latitude": 36.3044083
  },
  "#19": {
    "id": 19,
    "name": "Mount Adatara",
    "longitude": 139.733333,
    "latitude": 37.816667
  },
  "#20": {
    "id": 20,
    "name": "Mount Ishikawa Loop",
    "longitude": 127.83201953862918,
    "latitude": 26.448293701747232
  },
  "#21": {
    "id": 21,
    "name": "Mount Mitsutoge: Mitsutouge Station - Kawaguchiko Station",
    "longitude": 138.6565076129471,
    "latitude": 35.4040975
  },
  "#22": {
    "id": 22,
    "name": "Mount Amagatake - Obora",
    "longitude": 136.1086582,
    "latitude": 34.6279243
  },
  "#23": {
    "id": 23,
    "name": "Nakasendo: Magome - Tsumago",
    "longitude": 137.5005402,
    "latitude": 35.4876463
  },
  "#24": {
    "id": 24,
    "name": "Kanto Fureai no Michi Trail: No.2 The Bird Trail (Tori no michi)",
    "longitude": 139.2675722,
    "latitude": 35.6313001
  },
  "#25": {
    "id": 25,
    "name": "Jogasaki Nature Study Course",
    "longitude": 138.6565076129471,
    "latitude": 35.4040975
  },
  "#26": {
    "id": 26,
    "name": "JR Fukuchiyama Line Haisenjiki Hiking Course",
    "longitude": 135.3257734,
    "latitude": 34.8659057
  },
  "#27": {
    "id": 27,
    "name": "Mount Ono",
    "longitude": 139.0753086,
    "latitude": 35.4032107
  },
  "#28": {
    "id": 28,
    "name": "Jawbone Ridge Loop",
    "longitude": 128.2781186666042,
    "latitude": 26.7636596
  },
  "#29": {
    "id": 29,
    "name": "Mount Awadake",
    "longitude": 127.9773062,
    "latitude": 26.5914524
  },
  "#30": {
    "id": 30,
    "name": "Mount Takao: Trail 6",
    "longitude": 139.2675722,
    "latitude": 35.6313001
  },
  "#31": {
    "id": 31,
    "name": "Ta-taki Falls",
    "longitude": 128.2781186666042,
    "latitude": 26.7636596
  },
  "#32": {
    "id": 32,
    "name": "Koyasan Choishi-Michi Road",
    "longitude": 135.5584078,
    "latitude": 34.2149851
  },
  "#33": {
    "id": 33,
    "name": "Minamidakegoya - Mount Kita-Hotaka - Hotakadake Sanso",
    "longitude": 137.6375821,
    "latitude": 36.2482936
  },
  "#34": {
    "id": 34,
    "name": "Mount Katsuu",
    "longitude": 128.0283396807988,
    "latitude": 26.72122615
  },
  "#35": {
    "id": 35,
    "name": "Asagaya Walk",
    "longitude": 139.7671861,
    "latitude": 35.6810912
  },
  "#36": {
    "id": 36,
    "name": "Mount Kintoki  - Otome Pass",
    "longitude": 138.6565076129471,
    "latitude": 35.4040975
  },
  "#37": {
    "id": 37,
    "name": "Mount Kinpu - Kanayama",
    "longitude": 138.716667,
    "latitude": 35.9
  },
  "#38": {
    "id": 38,
    "name": "Takamine Kogen - Mount Kurofu",
    "longitude": 138.625,
    "latitude": 36.625
  },
  "#39": {
    "id": 39,
    "name": "Myojin Ike Pond Loop",
    "longitude": 137.6375821,
    "latitude": 36.2482936
  },
  "#40": {
    "id": 40,
    "name": "Hiji Otaki Falls",
    "longitude": 128.2781186666042,
    "latitude": 26.7636596
  },
  "#41": {
    "id": 41,
    "name": "Mount Tanzawa - Nakatsu River",
    "longitude": 139.22139572509408,
    "latitude": 35.494391236503596
  },
  "#42": {
    "id": 42,
    "name": "Okura - Mount Nabewari - Yabitsu Pass",
    "longitude": 139.14177503761607,
    "latitude": 35.44373045073801
  },
  "#43": {
    "id": 43,
    "name": "Shirode Otaki Falls - Mount Oku-Hotaka - Mount Nishi-Hotaka",
    "longitude": 137.6375821,
    "latitude": 36.2482936
  },
  "#44": {
    "id": 44,
    "name": "Tokyo Cherry Blossom Walk",
    "longitude": 139.7671861,
    "latitude": 35.6810912
  },
  "#45": {
    "id": 45,
    "name": "Nagatoro Alps - Mount Hodosan",
    "longitude": 139.0857612,
    "latitude": 35.9914509
  },
  "#46": {
    "id": 46,
    "name": "Hakkoda Mountains Loop",
    "longitude": 140.91237945788322,
    "latitude": 40.664935983229256
  },
  "#47": {
    "id": 47,
    "name": "Fukugawa Falls",
    "longitude": 127.9773062,
    "latitude": 26.5914524
  },
  "#48": {
    "id": 48,
    "name": "Kumano Kodo: Yunomine Onsen - Kumano Hongu Taisha Loop",
    "longitude": 135.8607624,
    "latitude": 33.4712018
  },
  "#49": {
    "id": 49,
    "name": "Nishizawa Gorge Loop",
    "longitude": 138.7401443265186,
    "latitude": 35.86957759240685
  },
  "#50": {
    "id": 50,
    "name": "Mount Azegamaru - Nishitanzawa Visitor Center Loop",
    "longitude": 139.06296956883773,
    "latitude": 35.472063668002455
  },
  "#51": {
    "id": 51,
    "name": "Tongariro Alpine Crossing",
    "longitude": 175.54013025609362,
    "latitude": -39.2354258
  },
  "#52": {
    "id": 52,
    "name": "Roys Peak Track",
    "longitude": 169.1364637,
    "latitude": -44.6941691
  },
  "#53": {
    "id": 53,
    "name": "Hooker Valley Track to Hooker Lake",
    "longitude": 170.24107390865902,
    "latitude": -43.60487275
  },
  "#54": {
    "id": 54,
    "name": "Muller Lake Lookout",
    "longitude": 170.24107390865902,
    "latitude": -43.60487275
  },
  "#55": {
    "id": 55,
    "name": "Ben Lomond Track via Skyline Road",
    "longitude": 168.661,
    "latitude": -45.0321923
  },
  "#56": {
    "id": 56,
    "name": "Queenstown Hill Walkway",
    "longitude": 168.66618991526167,
    "latitude": -45.02793302817459
  },
  "#57": {
    "id": 57,
    "name": "Sealy Tarns Track",
    "longitude": 170.24107390865902,
    "latitude": -43.60487275
  },
  "#58": {
    "id": 58,
    "name": "Mueller Hut Route",
    "longitude": 170.24107390865902,
    "latitude": -43.60487275
  },
  "#59": {
    "id": 59,
    "name": "Isthmus Peak Track",
    "longitude": 169.19319719820066,
    "latitude": -44.496133856295195
  },
  "#60": {
    "id": 60,
    "name": "Kepler Track",
    "longitude": 167.48799310101927,
    "latitude": -45.29155285
  },
  "#61": {
    "id": 61,
    "name": "Key Summit and View of Lake Marian via Routeburn Track",
    "longitude": 167.48799310101927,
    "latitude": -45.29155285
  },
  "#62": {
    "id": 62,
    "name": "Devil's Punchbowl Lookout Trail",
    "longitude": 171.73109535836568,
    "latitude": -42.894508
  },
  "#63": {
    "id": 63,
    "name": "Tongariro Alpine Crossing with Mount Tongariro and Mount Ngauruhoe",
    "longitude": 175.54013025609362,
    "latitude": -39.2354258
  },
  "#64": {
    "id": 64,
    "name": "Mount Maunganui Track",
    "longitude": 176.17183832993246,
    "latitude": -37.63011288882145
  },
  "#65": {
    "id": 65,
    "name": "Wairere Falls Track",
    "longitude": 175.90093000121308,
    "latitude": -37.73412967155026
  },
  "#66": {
    "id": 66,
    "name": "Diamond Lake and Rocky Mountain Track",
    "longitude": 168.7148481596373,
    "latitude": -44.34990745
  },
  "#67": {
    "id": 67,
    "name": "Comans Track and Mercer Bay Loop via Watchmans Road",
    "longitude": 174.57019872681582,
    "latitude": -36.957567600000004
  },
  "#68": {
    "id": 68,
    "name": "Rob Roy Glacier Track",
    "longitude": 168.7148481596373,
    "latitude": -44.34990745
  },
  "#69": {
    "id": 69,
    "name": "The Pinnacles Loop Track",
    "longitude": 175.7699533,
    "latitude": -36.7313757
  },
  "#70": {
    "id": 70,
    "name": "Taranaki Falls Loop",
    "longitude": 175.54013025609362,
    "latitude": -39.2354258
  },
  "#71": {
    "id": 71,
    "name": "Lake Marian Track",
    "longitude": 167.48799310101927,
    "latitude": -45.29155285
  },
  "#72": {
    "id": 72,
    "name": "Mercer Bay Loop Track",
    "longitude": 174.57019872681582,
    "latitude": -36.957567600000004
  },
  "#73": {
    "id": 73,
    "name": "Routeburn Track",
    "longitude": 168.7148481596373,
    "latitude": -44.34990745
  },
  "#74": {
    "id": 74,
    "name": "Mount Taranaki Track",
    "longitude": 174.07075633189316,
    "latitude": -39.25910665
  },
  "#75": {
    "id": 75,
    "name": "Massey Cossey Loop Track",
    "longitude": 175.18288697538782,
    "latitude": -37.0717339
  },
  "#76": {
    "id": 76,
    "name": "Milford Track",
    "longitude": 167.48799310101927,
    "latitude": -45.29155285
  },
  "#77": {
    "id": 77,
    "name": "Kitekite Falls Path",
    "longitude": 174.57019872681582,
    "latitude": -36.957567600000004
  },
  "#78": {
    "id": 78,
    "name": "Duder Regional Park Loop",
    "longitude": 175.08116563090283,
    "latitude": -36.906800000000004
  },
  "#79": {
    "id": 79,
    "name": "Mount John Walkway",
    "longitude": 170.52402115790798,
    "latitude": -43.89344815
  },
  "#80": {
    "id": 80,
    "name": "Cathedral Cove Walk",
    "longitude": 175.7024856,
    "latitude": -36.8331861
  },
  "#81": {
    "id": 81,
    "name": "Tiki Walking Track",
    "longitude": 168.661,
    "latitude": -45.0321923
  },
  "#82": {
    "id": 82,
    "name": "Upper Nihotupu Walk",
    "longitude": 174.57019872681582,
    "latitude": -36.957567600000004
  },
  "#83": {
    "id": 83,
    "name": "Routeburn Track: Routeburn Shelter to Falls Hut",
    "longitude": 168.7148481596373,
    "latitude": -44.34990745
  },
  "#84": {
    "id": 84,
    "name": "Punakaiki Pancake Rocks and Blowholes Loop",
    "longitude": 171.48642603482818,
    "latitude": -42.10780295
  },
  "#85": {
    "id": 85,
    "name": "Long Bay - Okura Track",
    "longitude": 174.74470738111955,
    "latitude": -36.67596385
  },
  "#86": {
    "id": 86,
    "name": "Gertrude Saddle Route",
    "longitude": 167.48799310101927,
    "latitude": -45.29155285
  },
  "#87": {
    "id": 87,
    "name": "The Pinnacles Track",
    "longitude": 175.7699533,
    "latitude": -36.7313757
  },
  "#88": {
    "id": 88,
    "name": "Lake Alta Track",
    "longitude": 168.81726389822012,
    "latitude": -45.057074732707484
  },
  "#89": {
    "id": 89,
    "name": "Ben Lomond Track via Skyline Gondola",
    "longitude": 168.661,
    "latitude": -45.0321923
  },
  "#90": {
    "id": 90,
    "name": "Sam Summers via Mount Crichton Loop Track",
    "longitude": 168.661,
    "latitude": -45.0321923
  },
  "#91": {
    "id": 91,
    "name": "Cape Brett Track",
    "longitude": 174.0369343,
    "latitude": -35.6680524
  },
  "#92": {
    "id": 92,
    "name": "Bealey Spur Track",
    "longitude": 171.62882494657293,
    "latitude": -43.02978732770211
  },
  "#93": {
    "id": 93,
    "name": "Rapaki Track",
    "longitude": 172.66426141166167,
    "latitude": -43.5678162160786
  },
  "#94": {
    "id": 94,
    "name": "Karangahake Windows Walk",
    "longitude": 175.72508316913436,
    "latitude": -37.4269971791423
  },
  "#95": {
    "id": 95,
    "name": "Godley Head Walkway and Taylors Mistake loop",
    "longitude": 172.7921232331073,
    "latitude": -43.589680400000006
  },
  "#96": {
    "id": 96,
    "name": "Slip, Pipeline, and Beveridge Track Loop",
    "longitude": 174.57019872681582,
    "latitude": -36.957567600000004
  },
  "#97": {
    "id": 97,
    "name": "Mangemangeroa Reserve Track",
    "longitude": 174.89941610095153,
    "latitude": -36.92380915
  },
  "#98": {
    "id": 98,
    "name": "Abel Tasman Great Walk: Takapou to Marahau",
    "longitude": 172.93385913716241,
    "latitude": -40.889834699999994
  },
  "#99": {
    "id": 99,
    "name": "Paekakariki Escarpment Track",
    "longitude": 174.9514432,
    "latitude": -40.9883074
  },
  "#100": {
    "id": 100,
    "name": "Blue Spring via Te Waihou Walkway from Leslie Road Trailhead",
    "longitude": 175.7799503,
    "latitude": -38.0512585
  }
}
